{
    "geographical_coordinates": [
        {
            "Africa/Abidjan": {
                "location": "Abidjan",
                "latitude": 5.320357,
                "longitude": -4.016107
            }
        },
        {
            "Africa/Accra": {
                "location": "Accra",
                "latitude": 5.5571096,
                "longitude": -0.2012376
            }
        },
        {
            "Africa/Addis_Ababa": {
                "location": "Addis Ababa",
                "latitude": 9.0358287,
                "longitude": 38.7524127
            }
        },
        {
            "Africa/Algiers": {
                "location": "Algiers",
                "latitude": 36.7729333,
                "longitude": 3.0588445
            }
        },
        {
            "Africa/Asmara": {
                "location": "Asmara",
                "latitude": 15.3389667,
                "longitude": 38.9326763
            }
        },
        {
            "Africa/Asmera": {
                "location": "Asmera",
                "latitude": 15.3389667,
                "longitude": 38.9326763
            }
        },
        {
            "Africa/Bamako": {
                "location": "Bamako",
                "latitude": 12.649319,
                "longitude": -8.000337
            }
        },
        {
            "Africa/Bangui": {
                "location": "Bangui",
                "latitude": 4.3635118,
                "longitude": 18.5835913
            }
        },
        {
            "Africa/Banjul": {
                "location": "Banjul",
                "latitude": 13.45535,
                "longitude": -16.575646
            }
        },
        {
            "Africa/Bissau": {
                "location": "Bissau",
                "latitude": 11.861324,
                "longitude": -15.583055
            }
        },
        {
            "Africa/Blantyre": {
                "location": "Blantyre",
                "latitude": -15.7862543,
                "longitude": 35.0035694
            }
        },
        {
            "Africa/Brazzaville": {
                "location": "Brazzaville",
                "latitude": -4.2694407,
                "longitude": 15.2712256
            }
        },
        {
            "Africa/Bujumbura": {
                "location": "Bujumbura",
                "latitude": -3.3638125,
                "longitude": 29.3675028
            }
        },
        {
            "Africa/Cairo": {
                "location": "Cairo",
                "latitude": 30.0443879,
                "longitude": 31.2357257
            }
        },
        {
            "Africa/Casablanca": {
                "location": "Casablanca",
                "latitude": 33.5945144,
                "longitude": -7.6200284
            }
        },
        {
            "Africa/Ceuta": {
                "location": "Ceuta",
                "latitude": 35.888361,
                "longitude": -5.304138
            }
        },
        {
            "Africa/Conakry": {
                "location": "Conakry",
                "latitude": 9.5170602,
                "longitude": -13.6998434
            }
        },
        {
            "Africa/Dakar": {
                "location": "Dakar",
                "latitude": 14.693425,
                "longitude": -17.447938
            }
        },
        {
            "Africa/Dar_es_Salaam": {
                "location": "Dar es Salaam",
                "latitude": -6.8160837,
                "longitude": 39.2803583
            }
        },
        {
            "Africa/Djibouti": {
                "location": "Djibouti",
                "latitude": 11.8145966,
                "longitude": 42.8453061
            }
        },
        {
            "Africa/Douala": {
                "location": "Douala",
                "latitude": 4.0429389,
                "longitude": 9.7062018
            }
        },
        {
            "Africa/El_Aaiun": {
                "location": "El Aaiun",
                "latitude": 27.154512,
                "longitude": -13.1953921
            }
        },
        {
            "Africa/Freetown": {
                "location": "Freetown",
                "latitude": 8.479004,
                "longitude": -13.26795
            }
        },
        {
            "Africa/Gaborone": {
                "location": "Gaborone",
                "latitude": -24.6581357,
                "longitude": 25.9088474
            }
        },
        {
            "Africa/Harare": {
                "location": "Harare",
                "latitude": -17.8567035,
                "longitude": 31.0601584
            }
        },
        {
            "Africa/Johannesburg": {
                "location": "Johannesburg",
                "latitude": -26.205,
                "longitude": 28.049722
            }
        },
        {
            "Africa/Juba": {
                "location": "Juba",
                "latitude": 4.8459246,
                "longitude": 31.5959173
            }
        },
        {
            "Africa/Kampala": {
                "location": "Kampala",
                "latitude": 0.3177137,
                "longitude": 32.5813539
            }
        },
        {
            "Africa/Khartoum": {
                "location": "Khartoum",
                "latitude": 15.5635972,
                "longitude": 32.5349123
            }
        },
        {
            "Africa/Kigali": {
                "location": "Kigali",
                "latitude": -1.9534357,
                "longitude": 30.1140089
            }
        },
        {
            "Africa/Kinshasa": {
                "location": "Kinshasa",
                "latitude": -4.3196982,
                "longitude": 15.3424196
            }
        },
        {
            "Africa/Lagos": {
                "location": "Lagos",
                "latitude": 6.4550575,
                "longitude": 3.3941795
            }
        },
        {
            "Africa/Libreville": {
                "location": "Libreville",
                "latitude": 0.4086518,
                "longitude": 9.4418849
            }
        },
        {
            "Africa/Lome": {
                "location": "Lome",
                "latitude": 6.130419,
                "longitude": 1.215829
            }
        },
        {
            "Africa/Luanda": {
                "location": "Luanda",
                "latitude": -8.8272699,
                "longitude": 13.2439512
            }
        },
        {
            "Africa/Lubumbashi": {
                "location": "Lubumbashi",
                "latitude": -11.6642316,
                "longitude": 27.4826264
            }
        },
        {
            "Africa/Lusaka": {
                "location": "Lusaka",
                "latitude": -15.4163395,
                "longitude": 28.2818414
            }
        },
        {
            "Africa/Malabo": {
                "location": "Malabo",
                "latitude": 3.741877,
                "longitude": 8.7740663
            }
        },
        {
            "Africa/Maputo": {
                "location": "Maputo",
                "latitude": -25.966213,
                "longitude": 32.56745
            }
        },
        {
            "Africa/Maseru": {
                "location": "Maseru",
                "latitude": -29.310054,
                "longitude": 27.478222
            }
        },
        {
            "Africa/Mbabane": {
                "location": "Mbabane",
                "latitude": -3.3638125,
                "longitude": 29.3675028
            }
        },
        {
            "Africa/Mogadishu": {
                "location": "Mogadishu",
                "latitude": 2.0349312,
                "longitude": 45.3419183
            }
        },
        {
            "Africa/Monrovia": {
                "location": "Monrovia",
                "latitude": 6.3203562,
                "longitude": -10.8060492
            }
        },
        {
            "Africa/Nairobi": {
                "location": "Nairobi",
                "latitude": -1.2890006,
                "longitude": 36.8172812
            }
        },
        {
            "Africa/Ndjamena": {
                "location": "Ndjamena",
                "latitude": 12.1191543,
                "longitude": 15.0502758
            }
        },
        {
            "Africa/Niamey": {
                "location": "Niamey",
                "latitude": 13.524834,
                "longitude": 2.109823
            }
        },
        {
            "Africa/Nouakchott": {
                "location": "Nouakchott",
                "latitude": 18.0792379,
                "longitude": -15.9780071
            }
        },
        {
            "Africa/Ouagadougou": {
                "location": "Ouagadougou",
                "latitude": 12.3681873,
                "longitude": -1.5270944
            }
        },
        {
            "Africa/Porto-Novo": {
                "location": "Porto-Novo",
                "latitude": 6.4990718,
                "longitude": 2.6253361
            }
        },
        {
            "Africa/Sao_Tome": {
                "location": "Sao Tome",
                "latitude": 0.3389242,
                "longitude": 6.7313031
            }
        },
        {
            "Africa/Timbuktu": {
                "location": "Timbuktu",
                "latitude": 16.7719091,
                "longitude": -3.0087272
            }
        },
        {
            "Africa/Tripoli": {
                "location": "Tripoli",
                "latitude": 32.896672,
                "longitude": 13.1777923
            }
        },
        {
            "Africa/Tunis": {
                "location": "Tunis",
                "latitude": 33.8439408,
                "longitude": 9.400138
            }
        },
        {
            "Africa/Windhoek": {
                "location": "Windhoek",
                "latitude": -22.5776104,
                "longitude": 17.0772739
            }
        },
        {
            "America/Adak": {
                "location": "Adak",
                "latitude": 51.8736127,
                "longitude": -176.639032
            }
        },
        {
            "America/Anchorage": {
                "location": "Anchorage",
                "latitude": 61.2163129,
                "longitude": -149.894852
            }
        },
        {
            "America/Anguilla": {
                "location": "Anguilla",
                "latitude": 18.1954947,
                "longitude": -63.0750234
            }
        },
        {
            "America/Antigua": {
                "location": "Antigua",
                "latitude": 17.1037152,
                "longitude": -61.7904505
            }
        },
        {
            "America/Araguaina": {
                "location": "Araguaina",
                "latitude": -7.193241,
                "longitude": -48.2018597
            }
        },
        {
            "America/Argentina/Buenos_Aires": {
                "location": "Buenos Aires",
                "latitude": -34.6095579,
                "longitude": -58.3887904
            }
        },
        {
            "America/Argentina/Catamarca": {
                "location": "Catamarca",
                "latitude": -27.7758659,
                "longitude": -67.171292
            }
        },
        {
            "America/Argentina/ComodRivadavia": {
                "location": "Comodoro Rivadavia",
                "latitude": -45.8647,
                "longitude": -67.4808
            }
        },
        {
            "America/Argentina/Cordoba": {
                "location": "Cordoba",
                "latitude": 37.8845813,
                "longitude": -4.7760138
            }
        },
        {
            "America/Argentina/Jujuy": {
                "location": "Jujuy",
                "latitude": -23.1546219,
                "longitude": -66.1110913
            }
        },
        {
            "America/Argentina/La_Rioja": {
                "location": "La Rioja",
                "latitude": 42.3285528,
                "longitude": -2.4674917
            }
        },
        {
            "America/Argentina/Mendoza": {
                "location": "Mendoza",
                "latitude": -34.5970325,
                "longitude": -68.7304797
            }
        },
        {
            "America/Argentina/Rio_Gallegos": {
                "location": "Rio Gallegos",
                "latitude": -51.6215268,
                "longitude": -69.2150374
            }
        },
        {
            "America/Argentina/Salta": {
                "location": "Salta",
                "latitude": -25.2269908,
                "longitude": -64.5911956
            }
        },
        {
            "America/Argentina/San_Juan": {
                "location": "San Juan",
                "latitude": 18.3842391,
                "longitude": -66.05344
            }
        },
        {
            "America/Argentina/San_Luis": {
                "location": "San Luis",
                "latitude": 38.6254063,
                "longitude": -90.190009
            }
        },
        {
            "America/Argentina/Tucuman": {
                "location": "Tucuman",
                "latitude": -27.0448424,
                "longitude": -65.3657954
            }
        },
        {
            "America/Argentina/Ushuaia": {
                "location": "Ushuaia",
                "latitude": -54.807306,
                "longitude": -68.3084133
            }
        },
        {
            "America/Aruba": {
                "location": "Aruba",
                "latitude": 12.5013629,
                "longitude": -69.9618475
            }
        },
        {
            "America/Asuncion": {
                "location": "Asuncion",
                "latitude": -25.2800459,
                "longitude": -57.6343814
            }
        },
        {
            "America/Atikokan": {
                "location": "Atikokan",
                "latitude": 48.762526,
                "longitude": -91.624603
            }
        },
        {
            "America/Atka": {
                "location": "Atka",
                "latitude": 52.1984514,
                "longitude": -174.1983056
            }
        },
        {
            "America/Bahia": {
                "location": "Bahia",
                "latitude": -12.285251,
                "longitude": -41.9294776
            }
        },
        {
            "America/Bahia_Banderas": {
                "location": "Bahia Banderas",
                "latitude": 19.666433,
                "longitude": -99.0677657
            }
        },
        {
            "America/Barbados": {
                "location": "Barbados",
                "latitude": 13.1500331,
                "longitude": -59.5250305
            }
        },
        {
            "America/Belem": {
                "location": "Belem",
                "latitude": -1.45056,
                "longitude": -48.4682453
            }
        },
        {
            "America/Belize": {
                "location": "Belize",
                "latitude": 17.1204943,
                "longitude": -88.6859028
            }
        },
        {
            "America/Blanc-Sablon": {
                "location": "Blanc-Sablon",
                "latitude": 51.4121624,
                "longitude": -57.2018488
            }
        },
        {
            "America/Boa_Vista": {
                "location": "Boa Vista",
                "latitude": 2.8208478,
                "longitude": -60.6719582
            }
        },
        {
            "America/Bogota": {
                "location": "Bogota",
                "latitude": 4.6533817,
                "longitude": -74.0836331
            }
        },
        {
            "America/Boise": {
                "location": "Boise",
                "latitude": 43.6166163,
                "longitude": -116.200886
            }
        },
        {
            "America/Buenos_Aires": {
                "location": "Buenos Aires",
                "latitude": -34.6095579,
                "longitude": -58.3887904
            }
        },
        {
            "America/Cambridge_Bay": {
                "location": "Cambridge Bay",
                "latitude": 69.1178442,
                "longitude": -105.0603881
            }
        },
        {
            "America/Campo_Grande": {
                "location": "Campo Grande",
                "latitude": -20.4640173,
                "longitude": -54.6162947
            }
        },
        {
            "America/Cancun": {
                "location": "Cancun",
                "latitude": 21.1527467,
                "longitude": -86.8425761
            }
        },
        {
            "America/Caracas": {
                "location": "Caracas",
                "latitude": 10.5060934,
                "longitude": -66.9146008
            }
        },
        {
            "America/Catamarca": {
                "location": "Catamarca",
                "latitude": -27.7758659,
                "longitude": -67.171292
            }
        },
        {
            "America/Cayenne": {
                "location": "Cayenne",
                "latitude": 4.9371544,
                "longitude": -52.3258736
            }
        },
        {
            "America/Cayman": {
                "location": "Cayman",
                "latitude": 19.7031822,
                "longitude": -79.9174627
            }
        },
        {
            "America/Chicago": {
                "location": "Chicago",
                "latitude": 41.8755616,
                "longitude": -87.6244212
            }
        },
        {
            "America/Chihuahua": {
                "location": "Chihuahua",
                "latitude": 28.5000001,
                "longitude": -106.0000001
            }
        },
        {
            "America/Ciudad_Juarez": {
                "location": "Ciudad Juarez",
                "latitude": 31.6907979,
                "longitude": -106.4253215
            }
        },
        {
            "America/Coral_Harbour": {
                "location": "Coral Harbour",
                "latitude": 64.136455,
                "longitude": -83.1642053
            }
        },
        {
            "America/Cordoba": {
                "location": "Cordoba",
                "latitude": 37.8845813,
                "longitude": -4.7760138
            }
        },
        {
            "America/Costa_Rica": {
                "location": "Costa Rica",
                "latitude": 10.2735633,
                "longitude": -84.0739102
            }
        },
        {
            "America/Coyhaique": {
                "location": "Coyhaique",
                "latitude": -45.5711804,
                "longitude": -72.0684863
            }
        },
        {
            "America/Creston": {
                "location": "Creston",
                "latitude": 41.0585878,
                "longitude": -94.361397
            }
        },
        {
            "America/Cuiaba": {
                "location": "Cuiaba",
                "latitude": -15.5986686,
                "longitude": -56.0991301
            }
        },
        {
            "America/Curacao": {
                "location": "Curacao",
                "latitude": 12.1176488,
                "longitude": -68.9309263
            }
        },
        {
            "America/Danmarkshavn": {
                "location": "Danmarkshavn",
                "latitude": 76.769517,
                "longitude": -18.6736769
            }
        },
        {
            "America/Dawson": {
                "location": "Dawson",
                "latitude": 32.7410762,
                "longitude": -101.9576048
            }
        },
        {
            "America/Dawson_Creek": {
                "location": "Dawson Creek",
                "latitude": 55.7605306,
                "longitude": -120.2364453
            }
        },
        {
            "America/Denver": {
                "location": "Denver",
                "latitude": 39.7392364,
                "longitude": -104.984862
            }
        },
        {
            "America/Detroit": {
                "location": "Detroit",
                "latitude": 42.3315509,
                "longitude": -83.0466403
            }
        },
        {
            "America/Dominica": {
                "location": "Dominica",
                "latitude": 15.4113138,
                "longitude": -61.3653618
            }
        },
        {
            "America/Edmonton": {
                "location": "Edmonton",
                "latitude": 53.5462055,
                "longitude": -113.491241
            }
        },
        {
            "America/Eirunepe": {
                "location": "Eirunepe",
                "latitude": -6.6567654,
                "longitude": -69.866161
            }
        },
        {
            "America/El_Salvador": {
                "location": "El Salvador",
                "latitude": 13.8000382,
                "longitude": -88.9140683
            }
        },
        {
            "America/Ensenada": {
                "location": "Ensenada",
                "latitude": 31.8658887,
                "longitude": -116.602983
            }
        },
        {
            "America/Fort_Nelson": {
                "location": "Fort Nelson",
                "latitude": 58.8048351,
                "longitude": -122.7014595
            }
        },
        {
            "America/Fort_Wayne": {
                "location": "Fort Wayne",
                "latitude": 41.0799898,
                "longitude": -85.1386015
            }
        },
        {
            "America/Fortaleza": {
                "location": "Fortaleza",
                "latitude": -3.7932167,
                "longitude": -38.5280359
            }
        },
        {
            "America/Glace_Bay": {
                "location": "Glace Bay",
                "latitude": 46.1949393,
                "longitude": -59.9561999
            }
        },
        {
            "America/Godthab": {
                "location": "Godthab",
                "latitude": 64.1767049,
                "longitude": -51.7361444
            }
        },
        {
            "America/Goose_Bay": {
                "location": "Goose Bay",
                "latitude": 53.333333,
                "longitude": -60.416667
            }
        },
        {
            "America/Grand_Turk": {
                "location": "Grand Turk",
                "latitude": 21.467964,
                "longitude": -71.1387218
            }
        },
        {
            "America/Grenada": {
                "location": "Grenada",
                "latitude": 12.1360374,
                "longitude": -61.6904045
            }
        },
        {
            "America/Guadeloupe": {
                "location": "Guadeloupe",
                "latitude": 16.2528827,
                "longitude": -61.5686855
            }
        },
        {
            "America/Guatemala": {
                "location": "Guatemala",
                "latitude": 15.5855545,
                "longitude": -90.345759
            }
        },
        {
            "America/Guayaquil": {
                "location": "Guayaquil",
                "latitude": -2.1900572,
                "longitude": -79.8868669
            }
        },
        {
            "America/Guyana": {
                "location": "Guyana",
                "latitude": 4.8417097,
                "longitude": -58.6416891
            }
        },
        {
            "America/Halifax": {
                "location": "Halifax",
                "latitude": 44.648618,
                "longitude": -63.5859487
            }
        },
        {
            "America/Havana": {
                "location": "Havana",
                "latitude": 23.135305,
                "longitude": -82.3589631
            }
        },
        {
            "America/Hermosillo": {
                "location": "Hermosillo",
                "latitude": 29.0948207,
                "longitude": -110.9692202
            }
        },
        {
            "America/Indiana/Indianapolis": {
                "location": "Indianapolis",
                "latitude": 39.7683331,
                "longitude": -86.1583502
            }
        },
        {
            "America/Indiana/Knox": {
                "location": "Knox",
                "latitude": 33.5871385,
                "longitude": -99.7073621
            }
        },
        {
            "America/Indiana/Marengo": {
                "location": "Marengo",
                "latitude": 32.201002,
                "longitude": -87.7569365
            }
        },
        {
            "America/Indiana/Petersburg": {
                "location": "Petersburg",
                "latitude": 37.227928,
                "longitude": -77.4019268
            }
        },
        {
            "America/Indiana/Tell_City": {
                "location": "Tell City",
                "latitude": 37.9508475,
                "longitude": -86.7697009
            }
        },
        {
            "America/Indiana/Vevay": {
                "location": "Vevay",
                "latitude": 38.7478401,
                "longitude": -85.0671725
            }
        },
        {
            "America/Indiana/Vincennes": {
                "location": "Vincennes",
                "latitude": 48.8474508,
                "longitude": 2.4396714
            }
        },
        {
            "America/Indiana/Winamac": {
                "location": "Winamac",
                "latitude": 41.0514299,
                "longitude": -86.6030648
            }
        },
        {
            "America/Indianapolis": {
                "location": "Indianapolis",
                "latitude": 39.7683331,
                "longitude": -86.1583502
            }
        },
        {
            "America/Inuvik": {
                "location": "Inuvik",
                "latitude": 68.3602632,
                "longitude": -133.720386
            }
        },
        {
            "America/Iqaluit": {
                "location": "Iqaluit",
                "latitude": 63.7492738,
                "longitude": -68.5213763
            }
        },
        {
            "America/Jamaica": {
                "location": "Jamaica",
                "latitude": 18.1850507,
                "longitude": -77.3947693
            }
        },
        {
            "America/Jujuy": {
                "location": "Jujuy",
                "latitude": -23.1546219,
                "longitude": -66.1110913
            }
        },
        {
            "America/Juneau": {
                "location": "Juneau",
                "latitude": 58.3019613,
                "longitude": -134.4196751
            }
        },
        {
            "America/Kentucky/Louisville": {
                "location": "Louisville",
                "latitude": 38.2542376,
                "longitude": -85.759407
            }
        },
        {
            "America/Kentucky/Monticello": {
                "location": "Monticello",
                "latitude": 42.617236,
                "longitude": 8.9546269
            }
        },
        {
            "America/Knox_IN": {
                "location": "Knox IN",
                "latitude": 38.687009,
                "longitude": -87.3811461
            }
        },
        {
            "America/Kralendijk": {
                "location": "Kralendijk",
                "latitude": 12.1472869,
                "longitude": -68.2740206
            }
        },
        {
            "America/La_Paz": {
                "location": "La Paz",
                "latitude": -16.4955455,
                "longitude": -68.1336229
            }
        },
        {
            "America/Lima": {
                "location": "Lima",
                "latitude": -12.0459808,
                "longitude": -77.0305912
            }
        },
        {
            "America/Los_Angeles": {
                "location": "Los Angeles",
                "latitude": 34.0536909,
                "longitude": -118.242766
            }
        },
        {
            "America/Louisville": {
                "location": "Louisville",
                "latitude": 38.2542376,
                "longitude": -85.759407
            }
        },
        {
            "America/Lower_Princes": {
                "location": "Lower Princes",
                "latitude": 51.0532302,
                "longitude": -1.3265375
            }
        },
        {
            "America/Maceio": {
                "location": "Maceio",
                "latitude": -9.6476843,
                "longitude": -35.7339264
            }
        },
        {
            "America/Managua": {
                "location": "Managua",
                "latitude": 12.1547116,
                "longitude": -86.273725
            }
        },
        {
            "America/Manaus": {
                "location": "Manaus",
                "latitude": -3.1316333,
                "longitude": -59.9825041
            }
        },
        {
            "America/Marigot": {
                "location": "Marigot",
                "latitude": 18.0668544,
                "longitude": -63.0848869
            }
        },
        {
            "America/Martinique": {
                "location": "Martinique",
                "latitude": 14.6113732,
                "longitude": -60.9620777
            }
        },
        {
            "America/Matamoros": {
                "location": "Matamoros",
                "latitude": 25.8810158,
                "longitude": -97.5064866
            }
        },
        {
            "America/Mazatlan": {
                "location": "Mazatlan",
                "latitude": 23.2035785,
                "longitude": -106.4208391
            }
        },
        {
            "America/Mendoza": {
                "location": "Mendoza",
                "latitude": -34.5970325,
                "longitude": -68.7304797
            }
        },
        {
            "America/Menominee": {
                "location": "Menominee",
                "latitude": 45.5785741,
                "longitude": -87.562159
            }
        },
        {
            "America/Merida": {
                "location": "Merida",
                "latitude": 38.9174665,
                "longitude": -6.3443977
            }
        },
        {
            "America/Metlakatla": {
                "location": "Metlakatla",
                "latitude": 55.1194415,
                "longitude": -131.5749494
            }
        },
        {
            "America/Mexico_City": {
                "location": "Mexico City",
                "latitude": 19.4326296,
                "longitude": -99.1331785
            }
        },
        {
            "America/Miquelon": {
                "location": "Miquelon",
                "latitude": 46.9637953,
                "longitude": -56.3262145
            }
        },
        {
            "America/Moncton": {
                "location": "Moncton",
                "latitude": 46.0985679,
                "longitude": -64.8004265
            }
        },
        {
            "America/Monterrey": {
                "location": "Monterrey",
                "latitude": 25.6802019,
                "longitude": -100.315258
            }
        },
        {
            "America/Montevideo": {
                "location": "Montevideo",
                "latitude": -34.9058916,
                "longitude": -56.1913095
            }
        },
        {
            "America/Montreal": {
                "location": "Montreal",
                "latitude": 45.5031824,
                "longitude": -73.5698065
            }
        },
        {
            "America/Montserrat": {
                "location": "Montserrat",
                "latitude": 16.7417041,
                "longitude": -62.1916844
            }
        },
        {
            "America/Nassau": {
                "location": "Nassau",
                "latitude": 25.0782266,
                "longitude": -77.3383438
            }
        },
        {
            "America/New_York": {
                "location": "New York",
                "latitude": 40.7127281,
                "longitude": -74.0060152
            }
        },
        {
            "America/Nipigon": {
                "location": "Nipigon",
                "latitude": 49.0149827,
                "longitude": -88.2662307
            }
        },
        {
            "America/Nome": {
                "location": "Nome",
                "latitude": 64.4975098,
                "longitude": -165.4061701
            }
        },
        {
            "America/Noronha": {
                "location": "Noronha",
                "latitude": -22.067778,
                "longitude": -45.263889
            }
        },
        {
            "America/North_Dakota/Beulah": {
                "location": "Beulah",
                "latitude": 47.26334,
                "longitude": -101.777946
            }
        },
        {
            "America/North_Dakota/Center": {
                "location": "Center",
                "latitude": 31.7952814,
                "longitude": -94.1803576
            }
        },
        {
            "America/North_Dakota/New_Salem": {
                "location": "New Salem",
                "latitude": 39.7075473,
                "longitude": -90.8476304
            }
        },
        {
            "America/Nuuk": {
                "location": "Nuuk",
                "latitude": 64.1767049,
                "longitude": -51.7361444
            }
        },
        {
            "America/Ojinaga": {
                "location": "Ojinaga",
                "latitude": 29.545625,
                "longitude": -104.5871101
            }
        },
        {
            "America/Panama": {
                "location": "Panama",
                "latitude": 8.559559,
                "longitude": -81.1308434
            }
        },
        {
            "America/Pangnirtung": {
                "location": "Pangnirtung",
                "latitude": 66.1480197,
                "longitude": -65.7172826
            }
        },
        {
            "America/Paramaribo": {
                "location": "Paramaribo",
                "latitude": 5.8241764,
                "longitude": -55.1662813
            }
        },
        {
            "America/Phoenix": {
                "location": "Phoenix",
                "latitude": 33.4484367,
                "longitude": -112.074141
            }
        },
        {
            "America/Port-au-Prince": {
                "location": "Port-au-Prince",
                "latitude": 18.547327,
                "longitude": -72.3395928
            }
        },
        {
            "America/Port_of_Spain": {
                "location": "Port of Spain",
                "latitude": 10.6572678,
                "longitude": -61.5180173
            }
        },
        {
            "America/Porto_Acre": {
                "location": "Porto Acre",
                "latitude": -9.5879722,
                "longitude": -67.53307
            }
        },
        {
            "America/Porto_Velho": {
                "location": "Porto Velho",
                "latitude": -8.7494525,
                "longitude": -63.8735438
            }
        },
        {
            "America/Puerto_Rico": {
                "location": "Puerto Rico",
                "latitude": 18.2247706,
                "longitude": -66.4858295
            }
        },
        {
            "America/Punta_Arenas": {
                "location": "Punta Arenas",
                "latitude": -53.1625688,
                "longitude": -70.907822
            }
        },
        {
            "America/Rainy_River": {
                "location": "Rainy River",
                "latitude": 48.8208533,
                "longitude": -92.6997993
            }
        },
        {
            "America/Rankin_Inlet": {
                "location": "Rankin Inlet",
                "latitude": 62.8030269,
                "longitude": -92.0868012
            }
        },
        {
            "America/Recife": {
                "location": "Recife",
                "latitude": -8.0584933,
                "longitude": -34.8848193
            }
        },
        {
            "America/Regina": {
                "location": "Regina",
                "latitude": 50.4479733,
                "longitude": -104.6158764
            }
        },
        {
            "America/Resolute": {
                "location": "Resolute",
                "latitude": 74.697029,
                "longitude": -94.840851
            }
        },
        {
            "America/Rio_Branco": {
                "location": "Rio Branco",
                "latitude": -9.9765362,
                "longitude": -67.8220778
            }
        },
        {
            "America/Rosario": {
                "location": "Rosario",
                "latitude": -32.9593609,
                "longitude": -60.6617024
            }
        },
        {
            "America/Santa_Isabel": {
                "location": "Santa Isabel",
                "latitude": 3.741877,
                "longitude": 8.7740663
            }
        },
        {
            "America/Santarem": {
                "location": "Santarem",
                "latitude": 39.2363637,
                "longitude": -8.6867081
            }
        },
        {
            "America/Santiago": {
                "location": "Santiago",
                "latitude": 9.8694792,
                "longitude": -83.7980749
            }
        },
        {
            "America/Santo_Domingo": {
                "location": "Santo Domingo",
                "latitude": 18.4713858,
                "longitude": -69.8918436
            }
        },
        {
            "America/Sao_Paulo": {
                "location": "Sao Paulo",
                "latitude": -23.5506507,
                "longitude": -46.6333824
            }
        },
        {
            "America/Scoresbysund": {
                "location": "Scoresbysund",
                "latitude": 70.4856214,
                "longitude": -21.961726
            }
        },
        {
            "America/Shiprock": {
                "location": "Shiprock",
                "latitude": 36.79196,
                "longitude": -108.6997609
            }
        },
        {
            "America/Sitka": {
                "location": "Sitka",
                "latitude": 57.0524973,
                "longitude": -135.337612
            }
        },
        {
            "America/St_Barthelemy": {
                "location": "St Barthelemy",
                "latitude": 17.9036287,
                "longitude": -62.8115292
            }
        },
        {
            "America/St_Johns": {
                "location": "St Johns",
                "latitude": 17.1184569,
                "longitude": -61.8448509
            }
        },
        {
            "America/St_Kitts": {
                "location": "St Kitts",
                "latitude": 17.3155554,
                "longitude": -62.7447785
            }
        },
        {
            "America/St_Lucia": {
                "location": "St Lucia",
                "latitude": 13.8250489,
                "longitude": -60.975036
            }
        },
        {
            "America/St_Thomas": {
                "location": "St Thomas",
                "latitude": 18.3429082,
                "longitude": -64.9188997
            }
        },
        {
            "America/St_Vincent": {
                "location": "St Vincent",
                "latitude": 43.1614391,
                "longitude": -0.1492738
            }
        },
        {
            "America/Swift_Current": {
                "location": "Swift Current",
                "latitude": 50.2849138,
                "longitude": -107.7984496
            }
        },
        {
            "America/Tegucigalpa": {
                "location": "Tegucigalpa",
                "latitude": 14.1058135,
                "longitude": -87.2047053
            }
        },
        {
            "America/Thule": {
                "location": "Thule",
                "latitude": 50.864506,
                "longitude": 18.1445913
            }
        },
        {
            "America/Thunder_Bay": {
                "location": "Thunder Bay",
                "latitude": 48.406414,
                "longitude": -89.259796
            }
        },
        {
            "America/Tijuana": {
                "location": "Tijuana",
                "latitude": 32.5317397,
                "longitude": -117.019529
            }
        },
        {
            "America/Toronto": {
                "location": "Toronto",
                "latitude": 43.6534817,
                "longitude": -79.3839347
            }
        },
        {
            "America/Tortola": {
                "location": "Tortola",
                "latitude": 18.4210569,
                "longitude": -64.6388325
            }
        },
        {
            "America/Vancouver": {
                "location": "Vancouver",
                "latitude": 49.2608724,
                "longitude": -123.113952
            }
        },
        {
            "America/Virgin": {
                "location": "Virgin",
                "latitude": 37.201902,
                "longitude": -113.187854
            }
        },
        {
            "America/Whitehorse": {
                "location": "Whitehorse",
                "latitude": 60.721571,
                "longitude": -135.054932
            }
        },
        {
            "America/Winnipeg": {
                "location": "Winnipeg",
                "latitude": 49.8955367,
                "longitude": -97.1384584
            }
        },
        {
            "America/Yakutat": {
                "location": "Yakutat",
                "latitude": 59.6391781,
                "longitude": -139.3429439
            }
        },
        {
            "America/Yellowknife": {
                "location": "Yellowknife",
                "latitude": 62.4540807,
                "longitude": -114.377385
            }
        },
        {
            "Antarctica/Casey": {
                "location": "Casey",
                "latitude": -66.275665564,
                "longitude": 110.521331248
            }
        },
        {
            "Antarctica/Davis": {
                "location": "Davis",
                "latitude": -68.57249771,
                "longitude": 77.967996128
            }
        },
        {
            "Antarctica/DumontDUrville": {
                "location": "Dumont d'Urville",
                "latitude": -66.666664,
                "longitude": 140.0166666
            }
        },
        {
            "Antarctica/Macquarie": {
                "location": "Macquarie",
                "latitude": -54.6318143,
                "longitude": 158.8617576
            }
        },
        {
            "Antarctica/Mawson": {
                "location": "Mawson",
                "latitude": -67.5999976,
                "longitude": 62.8666632
            }
        },
        {
            "Antarctica/McMurdo": {
                "location": "McMurdo",
                "latitude": -77.8499966,
                "longitude": 166.666664
            }
        },
        {
            "Antarctica/Palmer": {
                "location": "Palmer",
                "latitude": -64.774167,
                "longitude": -64.053056
            }
        },
        {
            "Antarctica/Rothera": {
                "location": "Rothera",
                "latitude": -67.5666644,
                "longitude": -68.1333328
            }
        },
        {
            "Antarctica/South_Pole": {
                "location": "South Pole",
                "latitude": -90.0,
                "longitude": 0.0
            }
        },
        {
            "Antarctica/Syowa": {
                "location": "Syowa",
                "latitude": -69.0,
                "longitude": 39.583331
            }
        },
        {
            "Antarctica/Troll": {
                "location": "Troll",
                "latitude": -72.0166666,
                "longitude": 2.5333312
            }
        },
        {
            "Antarctica/Vostok": {
                "location": "Vostok",
                "latitude": -78.4586514987,
                "longitude": 106.835726657
            }
        },
        {
            "Arctic/Longyearbyen": {
                "location": "Longyearbyen",
                "latitude": 78.2231558,
                "longitude": 15.6463656
            }
        },
        {
            "Asia/Aden": {
                "location": "Aden",
                "latitude": 12.789585,
                "longitude": 45.028504
            }
        },
        {
            "Asia/Almaty": {
                "location": "Almaty",
                "latitude": 43.2363924,
                "longitude": 76.9457275
            }
        },
        {
            "Asia/Amman": {
                "location": "Amman",
                "latitude": 31.9515694,
                "longitude": 35.9239625
            }
        },
        {
            "Asia/Anadyr": {
                "location": "Anadyr",
                "latitude": 64.7316875,
                "longitude": 177.5060925
            }
        },
        {
            "Asia/Aqtau": {
                "location": "Aqtau",
                "latitude": 43.6353364,
                "longitude": 51.168222
            }
        },
        {
            "Asia/Aqtobe": {
                "location": "Aqtobe",
                "latitude": 50.3003589,
                "longitude": 57.1545752
            }
        },
        {
            "Asia/Ashgabat": {
                "location": "Ashgabat",
                "latitude": 37.9404648,
                "longitude": 58.3823487
            }
        },
        {
            "Asia/Ashkhabad": {
                "location": "Ashkhabad",
                "latitude": 37.862499,
                "longitude": 58.238056
            }
        },
        {
            "Asia/Atyrau": {
                "location": "Atyrau",
                "latitude": 47.6605827,
                "longitude": 50.806203
            }
        },
        {
            "Asia/Baghdad": {
                "location": "Baghdad",
                "latitude": 33.3061701,
                "longitude": 44.3872213
            }
        },
        {
            "Asia/Bahrain": {
                "location": "Bahrain",
                "latitude": 26.1551249,
                "longitude": 50.5344606
            }
        },
        {
            "Asia/Baku": {
                "location": "Baku",
                "latitude": 40.3755885,
                "longitude": 49.8328009
            }
        },
        {
            "Asia/Bangkok": {
                "location": "Bangkok",
                "latitude": 13.7524938,
                "longitude": 100.4935089
            }
        },
        {
            "Asia/Barnaul": {
                "location": "Barnaul",
                "latitude": 53.3475493,
                "longitude": 83.7788448
            }
        },
        {
            "Asia/Beirut": {
                "location": "Beirut",
                "latitude": 33.8892265,
                "longitude": 35.5025585
            }
        },
        {
            "Asia/Bishkek": {
                "location": "Bishkek",
                "latitude": 42.8761424,
                "longitude": 74.6036724
            }
        },
        {
            "Asia/Brunei": {
                "location": "Brunei",
                "latitude": 4.4137155,
                "longitude": 114.5653908
            }
        },
        {
            "Asia/Calcutta": {
                "location": "Calcutta",
                "latitude": 22.5726459,
                "longitude": 88.3638953
            }
        },
        {
            "Asia/Chita": {
                "location": "Chita",
                "latitude": 52.0279939,
                "longitude": 113.4050512
            }
        },
        {
            "Asia/Choibalsan": {
                "location": "Choibalsan",
                "latitude": 48.0688183,
                "longitude": 114.5241352
            }
        },
        {
            "Asia/Chongqing": {
                "location": "Chongqing",
                "latitude": 30.05518,
                "longitude": 107.8748712
            }
        },
        {
            "Asia/Chungking": {
                "location": "Chungking",
                "latitude": 30.05518,
                "longitude": 107.8748712
            }
        },
        {
            "Asia/Colombo": {
                "location": "Colombo",
                "latitude": 6.9388614,
                "longitude": 79.8542005
            }
        },
        {
            "Asia/Dacca": {
                "location": "Dacca",
                "latitude": 23.7643863,
                "longitude": 90.3890144
            }
        },
        {
            "Asia/Damascus": {
                "location": "Damascus",
                "latitude": 45.4220856,
                "longitude": -122.4283111
            }
        },
        {
            "Asia/Dhaka": {
                "location": "Dhaka",
                "latitude": 23.7643863,
                "longitude": 90.3890144
            }
        },
        {
            "Asia/Dili": {
                "location": "Dili",
                "latitude": -8.5536809,
                "longitude": 125.5784093
            }
        },
        {
            "Asia/Dubai": {
                "location": "Dubai",
                "latitude": 25.0742823,
                "longitude": 55.1885387
            }
        },
        {
            "Asia/Dushanbe": {
                "location": "Dushanbe",
                "latitude": 38.5767045,
                "longitude": 68.785433
            }
        },
        {
            "Asia/Famagusta": {
                "location": "Famagusta",
                "latitude": 35.1205261,
                "longitude": 33.9387919
            }
        },
        {
            "Asia/Gaza": {
                "location": "Gaza",
                "latitude": -23.328398,
                "longitude": 32.8066057
            }
        },
        {
            "Asia/Harbin": {
                "location": "Harbin",
                "latitude": 45.7593633,
                "longitude": 126.6276177
            }
        },
        {
            "Asia/Hebron": {
                "location": "Hebron",
                "latitude": 31.528902,
                "longitude": 35.0944873
            }
        },
        {
            "Asia/Ho_Chi_Minh": {
                "location": "Ho Chi Minh",
                "latitude": 10.7737261,
                "longitude": 106.7166008
            }
        },
        {
            "Asia/Hong_Kong": {
                "location": "Hong Kong",
                "latitude": 22.3492155,
                "longitude": 114.1857978
            }
        },
        {
            "Asia/Hovd": {
                "location": "Hovd",
                "latitude": 46.8997977,
                "longitude": 92.2959651
            }
        },
        {
            "Asia/Irkutsk": {
                "location": "Irkutsk",
                "latitude": 52.2891225,
                "longitude": 104.279829
            }
        },
        {
            "Asia/Istanbul": {
                "location": "Istanbul",
                "latitude": 41.006381,
                "longitude": 28.9758715
            }
        },
        {
            "Asia/Jakarta": {
                "location": "Jakarta",
                "latitude": -6.1754049,
                "longitude": 106.827168
            }
        },
        {
            "Asia/Jayapura": {
                "location": "Jayapura",
                "latitude": -2.5387539,
                "longitude": 140.7037389
            }
        },
        {
            "Asia/Jerusalem": {
                "location": "Jerusalem",
                "latitude": 31.7788472,
                "longitude": 35.2257856
            }
        },
        {
            "Asia/Kabul": {
                "location": "Kabul",
                "latitude": 34.5269503,
                "longitude": 69.1850584
            }
        },
        {
            "Asia/Kamchatka": {
                "location": "Kamchatka",
                "latitude": 57.1914882,
                "longitude": 160.0383819
            }
        },
        {
            "Asia/Karachi": {
                "location": "Karachi",
                "latitude": 24.8546842,
                "longitude": 67.0207055
            }
        },
        {
            "Asia/Kashgar": {
                "location": "Kashgar",
                "latitude": 39.4665981,
                "longitude": 75.9900135
            }
        },
        {
            "Asia/Kathmandu": {
                "location": "Kathmandu",
                "latitude": 27.708317,
                "longitude": 85.3205817
            }
        },
        {
            "Asia/Katmandu": {
                "location": "Katmandu",
                "latitude": 27.708317,
                "longitude": 85.3205817
            }
        },
        {
            "Asia/Khandyga": {
                "location": "Khandyga",
                "latitude": 62.6477939,
                "longitude": 135.5750942
            }
        },
        {
            "Asia/Kolkata": {
                "location": "Kolkata",
                "latitude": 22.5726459,
                "longitude": 88.3638953
            }
        },
        {
            "Asia/Krasnoyarsk": {
                "location": "Krasnoyarsk",
                "latitude": 56.0091173,
                "longitude": 92.872586
            }
        },
        {
            "Asia/Kuala_Lumpur": {
                "location": "Kuala Lumpur",
                "latitude": 3.1516964,
                "longitude": 101.6942371
            }
        },
        {
            "Asia/Kuching": {
                "location": "Kuching",
                "latitude": 1.5597561,
                "longitude": 110.345397
            }
        },
        {
            "Asia/Kuwait": {
                "location": "Kuwait",
                "latitude": 29.2733964,
                "longitude": 47.4979476
            }
        },
        {
            "Asia/Macao": {
                "location": "Macao",
                "latitude": 22.1757605,
                "longitude": 113.5514142
            }
        },
        {
            "Asia/Macau": {
                "location": "Macau",
                "latitude": 22.1757605,
                "longitude": 113.5514142
            }
        },
        {
            "Asia/Magadan": {
                "location": "Magadan",
                "latitude": 63.5515028,
                "longitude": 154.014726
            }
        },
        {
            "Asia/Makassar": {
                "location": "Makassar",
                "latitude": -5.1342962,
                "longitude": 119.4124282
            }
        },
        {
            "Asia/Manila": {
                "location": "Manila",
                "latitude": 14.5904492,
                "longitude": 120.9803621
            }
        },
        {
            "Asia/Muscat": {
                "location": "Muscat",
                "latitude": 23.6123628,
                "longitude": 58.5938134
            }
        },
        {
            "Asia/Nicosia": {
                "location": "Nicosia",
                "latitude": 35.1746503,
                "longitude": 33.3638783
            }
        },
        {
            "Asia/Novokuznetsk": {
                "location": "Novokuznetsk",
                "latitude": 53.7582436,
                "longitude": 87.14653
            }
        },
        {
            "Asia/Novosibirsk": {
                "location": "Novosibirsk",
                "latitude": 54.9678145,
                "longitude": 82.9515989
            }
        },
        {
            "Asia/Omsk": {
                "location": "Omsk",
                "latitude": 54.991375,
                "longitude": 73.371529
            }
        },
        {
            "Asia/Oral": {
                "location": "Oral",
                "latitude": 51.7119835,
                "longitude": 54.5865583
            }
        },
        {
            "Asia/Phnom_Penh": {
                "location": "Phnom Penh",
                "latitude": 11.5730391,
                "longitude": 104.857807
            }
        },
        {
            "Asia/Pontianak": {
                "location": "Pontianak",
                "latitude": -0.0226903,
                "longitude": 109.3447488
            }
        },
        {
            "Asia/Pyongyang": {
                "location": "Pyongyang",
                "latitude": 39.0167979,
                "longitude": 125.7473609
            }
        },
        {
            "Asia/Qatar": {
                "location": "Qatar",
                "latitude": 25.3336984,
                "longitude": 51.2295295
            }
        },
        {
            "Asia/Qostanay": {
                "location": "Qostanay",
                "latitude": 52.0615626,
                "longitude": 62.9372689
            }
        },
        {
            "Asia/Qyzylorda": {
                "location": "Qyzylorda",
                "latitude": 45.2058853,
                "longitude": 63.9155202
            }
        },
        {
            "Asia/Rangoon": {
                "location": "Rangoon",
                "latitude": 16.7967129,
                "longitude": 96.1609916
            }
        },
        {
            "Asia/Riyadh": {
                "location": "Riyadh",
                "latitude": 23.333333,
                "longitude": 45.333333
            }
        },
        {
            "Asia/Saigon": {
                "location": "Saigon",
                "latitude": 10.7737261,
                "longitude": 106.7166008
            }
        },
        {
            "Asia/Sakhalin": {
                "location": "Sakhalin",
                "latitude": 50.159476,
                "longitude": 143.0264412
            }
        },
        {
            "Asia/Samarkand": {
                "location": "Samarkand",
                "latitude": 39.6550017,
                "longitude": 66.9756954
            }
        },
        {
            "Asia/Seoul": {
                "location": "Seoul",
                "latitude": 37.5666791,
                "longitude": 126.9782914
            }
        },
        {
            "Asia/Shanghai": {
                "location": "Shanghai",
                "latitude": 31.2312707,
                "longitude": 121.4700152
            }
        },
        {
            "Asia/Singapore": {
                "location": "Singapore",
                "latitude": 1.357107,
                "longitude": 103.8194992
            }
        },
        {
            "Asia/Srednekolymsk": {
                "location": "Srednekolymsk",
                "latitude": 67.455497,
                "longitude": 153.7071456
            }
        },
        {
            "Asia/Taipei": {
                "location": "Taipei",
                "latitude": 25.0375198,
                "longitude": 121.5636796
            }
        },
        {
            "Asia/Tashkent": {
                "location": "Tashkent",
                "latitude": 41.3123363,
                "longitude": 69.2787079
            }
        },
        {
            "Asia/Tbilisi": {
                "location": "Tbilisi",
                "latitude": 41.6934591,
                "longitude": 44.8014495
            }
        },
        {
            "Asia/Tehran": {
                "location": "Tehran",
                "latitude": 35.6892523,
                "longitude": 51.3896004
            }
        },
        {
            "Asia/Tel_Aviv": {
                "location": "Tel Aviv",
                "latitude": 32.0852997,
                "longitude": 34.7818064
            }
        },
        {
            "Asia/Thimbu": {
                "location": "Thimbu",
                "latitude": 27.4713546,
                "longitude": 89.6336729
            }
        },
        {
            "Asia/Thimphu": {
                "location": "Thimphu",
                "latitude": 27.4713546,
                "longitude": 89.6336729
            }
        },
        {
            "Asia/Tokyo": {
                "location": "Tokyo",
                "latitude": 35.6768601,
                "longitude": 139.7638947
            }
        },
        {
            "Asia/Tomsk": {
                "location": "Tomsk",
                "latitude": 58.6124279,
                "longitude": 82.0475315
            }
        },
        {
            "Asia/Ujung_Pandang": {
                "location": "Ujung Pandang",
                "latitude": -5.1342962,
                "longitude": 119.4124282
            }
        },
        {
            "Asia/Ulaanbaatar": {
                "location": "Ulaanbaatar",
                "latitude": 47.9184676,
                "longitude": 106.9177016
            }
        },
        {
            "Asia/Ulan_Bator": {
                "location": "Ulan Bator",
                "latitude": 47.9184676,
                "longitude": 106.9177016
            }
        },
        {
            "Asia/Urumqi": {
                "location": "Urumqi",
                "latitude": 43.8244074,
                "longitude": 87.6139038
            }
        },
        {
            "Asia/Ust-Nera": {
                "location": "Ust-Nera",
                "latitude": 64.566376,
                "longitude": 143.237839
            }
        },
        {
            "Asia/Vientiane": {
                "location": "Vientiane",
                "latitude": 17.9640988,
                "longitude": 102.6133707
            }
        },
        {
            "Asia/Vladivostok": {
                "location": "Vladivostok",
                "latitude": 43.1150678,
                "longitude": 131.8855768
            }
        },
        {
            "Asia/Yakutsk": {
                "location": "Yakutsk",
                "latitude": 62.0274078,
                "longitude": 129.7319787
            }
        },
        {
            "Asia/Yangon": {
                "location": "Yangon",
                "latitude": 16.7967129,
                "longitude": 96.1609916
            }
        },
        {
            "Asia/Yekaterinburg": {
                "location": "Yekaterinburg",
                "latitude": 56.8382071,
                "longitude": 60.6007886
            }
        },
        {
            "Asia/Yerevan": {
                "location": "Yerevan",
                "latitude": 40.1777112,
                "longitude": 44.5126233
            }
        },
        {
            "Atlantic/Azores": {
                "location": "Azores",
                "latitude": 37.8085565,
                "longitude": -25.4731374
            }
        },
        {
            "Atlantic/Bermuda": {
                "location": "Bermuda",
                "latitude": 32.3040273,
                "longitude": -64.7563086
            }
        },
        {
            "Atlantic/Canary": {
                "location": "Canary",
                "latitude": 28.2935785,
                "longitude": -16.6214471
            }
        },
        {
            "Atlantic/Cape_Verde": {
                "location": "Cape Verde",
                "latitude": 16.0000552,
                "longitude": -24.0083947
            }
        },
        {
            "Atlantic/Faeroe": {
                "location": "Faeroe",
                "latitude": 62.0282362,
                "longitude": -6.8819254
            }
        },
        {
            "Atlantic/Faroe": {
                "location": "Faroe",
                "latitude": 62.0282362,
                "longitude": -6.8819254
            }
        },
        {
            "Atlantic/Jan_Mayen": {
                "location": "Jan Mayen",
                "latitude": 70.9951725,
                "longitude": -8.4656563
            }
        },
        {
            "Atlantic/Madeira": {
                "location": "Madeira",
                "latitude": 32.7517501,
                "longitude": -16.9817487
            }
        },
        {
            "Atlantic/Reykjavik": {
                "location": "Reykjavik",
                "latitude": 64.145981,
                "longitude": -21.9422367
            }
        },
        {
            "Atlantic/South_Georgia": {
                "location": "South Georgia",
                "latitude": -54.4339319,
                "longitude": -36.4946519
            }
        },
        {
            "Atlantic/St_Helena": {
                "location": "St Helena",
                "latitude": -15.9690718,
                "longitude": -5.71295
            }
        },
        {
            "Atlantic/Stanley": {
                "location": "Stanley",
                "latitude": -51.6930616,
                "longitude": -57.856525
            }
        },
        {
            "Australia/ACT": {
                "location": "ACT",
                "latitude": -35.4883502,
                "longitude": 149.0026942
            }
        },
        {
            "Australia/Adelaide": {
                "location": "Adelaide",
                "latitude": -34.9281805,
                "longitude": 138.5999312
            }
        },
        {
            "Australia/Brisbane": {
                "location": "Brisbane",
                "latitude": -27.4689623,
                "longitude": 153.0235009
            }
        },
        {
            "Australia/Broken_Hill": {
                "location": "Broken Hill",
                "latitude": -31.965,
                "longitude": 141.4511111
            }
        },
        {
            "Australia/Canberra": {
                "location": "Canberra",
                "latitude": -35.2975906,
                "longitude": 149.1012676
            }
        },
        {
            "Australia/Currie": {
                "location": "Currie",
                "latitude": 55.8964331,
                "longitude": -3.308693
            }
        },
        {
            "Australia/Darwin": {
                "location": "Darwin",
                "latitude": -12.46044,
                "longitude": 130.8410469
            }
        },
        {
            "Australia/Eucla": {
                "location": "Eucla",
                "latitude": -31.6768407,
                "longitude": 128.8865164
            }
        },
        {
            "Australia/Hobart": {
                "location": "Hobart",
                "latitude": -42.8825088,
                "longitude": 147.3281233
            }
        },
        {
            "Australia/LHI": {
                "location": "LHI",
                "latitude": 28.561306,
                "longitude": 84.7382652
            }
        },
        {
            "Australia/Lindeman": {
                "location": "Lindeman",
                "latitude": 51.0521504,
                "longitude": 5.3310787
            }
        },
        {
            "Australia/Lord_Howe": {
                "location": "Lord Howe",
                "latitude": -31.5540166,
                "longitude": 159.0856256
            }
        },
        {
            "Australia/Melbourne": {
                "location": "Melbourne",
                "latitude": -37.8142454,
                "longitude": 144.9631732
            }
        },
        {
            "Australia/NSW": {
                "location": "NSW",
                "latitude": -31.8759835,
                "longitude": 147.2869493
            }
        },
        {
            "Australia/North": {
                "location": "North",
                "latitude": 8.7712794,
                "longitude": 13.7803627
            }
        },
        {
            "Australia/Perth": {
                "location": "Perth",
                "latitude": -31.9558967,
                "longitude": 115.8605784
            }
        },
        {
            "Australia/Queensland": {
                "location": "Queensland",
                "latitude": -22.1646782,
                "longitude": 144.5844903
            }
        },
        {
            "Australia/South": {
                "location": "South",
                "latitude": 18.2612839,
                "longitude": -73.8444985
            }
        },
        {
            "Australia/Sydney": {
                "location": "Sydney",
                "latitude": -33.8698439,
                "longitude": 151.2082848
            }
        },
        {
            "Australia/Tasmania": {
                "location": "Tasmania",
                "latitude": -42.035067,
                "longitude": 146.6366887
            }
        },
        {
            "Australia/Victoria": {
                "location": "Victoria",
                "latitude": -36.5986096,
                "longitude": 144.6780052
            }
        },
        {
            "Australia/West": {
                "location": "West",
                "latitude": 18.7668687,
                "longitude": -72.4387315
            }
        },
        {
            "Australia/Yancowinna": {
                "location": "Yancowinna",
                "latitude": -31.6978015,
                "longitude": 141.6446267
            }
        },
        {
            "Brazil/Acre": {
                "location": "Acre",
                "latitude": 32.9281731,
                "longitude": 35.0756378
            }
        },
        {
            "Europe/Amsterdam": {
                "location": "Amsterdam",
                "latitude": 52.3730796,
                "longitude": 4.8924534
            }
        },
        {
            "Europe/Andorra": {
                "location": "Andorra",
                "latitude": 42.5407167,
                "longitude": 1.5732033
            }
        },
        {
            "Europe/Astrakhan": {
                "location": "Astrakhan",
                "latitude": 46.3498308,
                "longitude": 48.0326203
            }
        },
        {
            "Europe/Athens": {
                "location": "Athens",
                "latitude": 33.9597677,
                "longitude": -83.376398
            }
        },
        {
            "Europe/Belfast": {
                "location": "Belfast",
                "latitude": 54.5975805,
                "longitude": -5.9277097
            }
        },
        {
            "Europe/Belgrade": {
                "location": "Belgrade",
                "latitude": 44.8153318,
                "longitude": 20.4456588
            }
        },
        {
            "Europe/Berlin": {
                "location": "Berlin",
                "latitude": 52.5173885,
                "longitude": 13.3951309
            }
        },
        {
            "Europe/Bratislava": {
                "location": "Bratislava",
                "latitude": 48.1359085,
                "longitude": 17.1597441
            }
        },
        {
            "Europe/Brussels": {
                "location": "Brussels",
                "latitude": 50.8467372,
                "longitude": 4.352493
            }
        },
        {
            "Europe/Bucharest": {
                "location": "Bucharest",
                "latitude": 44.4361414,
                "longitude": 26.102684
            }
        },
        {
            "Europe/Budapest": {
                "location": "Budapest",
                "latitude": 47.4978789,
                "longitude": 19.0402383
            }
        },
        {
            "Europe/Busingen": {
                "location": "Busingen",
                "latitude": 47.6975034,
                "longitude": 8.6907123
            }
        },
        {
            "Europe/Chisinau": {
                "location": "Chisinau",
                "latitude": 47.0245117,
                "longitude": 28.8322923
            }
        },
        {
            "Europe/Copenhagen": {
                "location": "Copenhagen",
                "latitude": 55.6867243,
                "longitude": 12.5700724
            }
        },
        {
            "Europe/Dublin": {
                "location": "Dublin",
                "latitude": 53.3493795,
                "longitude": -6.2605593
            }
        },
        {
            "Europe/Gibraltar": {
                "location": "Gibraltar",
                "latitude": 36.1285933,
                "longitude": -5.3474761
            }
        },
        {
            "Europe/Guernsey": {
                "location": "Guernsey",
                "latitude": 49.4622913,
                "longitude": -2.5812023
            }
        },
        {
            "Europe/Helsinki": {
                "location": "Helsinki",
                "latitude": 60.1666204,
                "longitude": 24.9435408
            }
        },
        {
            "Europe/Isle_of_Man": {
                "location": "Isle of Man",
                "latitude": 54.1936805,
                "longitude": -4.5591148
            }
        },
        {
            "Europe/Istanbul": {
                "location": "Istanbul",
                "latitude": 41.006381,
                "longitude": 28.9758715
            }
        },
        {
            "Europe/Jersey": {
                "location": "Jersey",
                "latitude": 39.0848464,
                "longitude": -90.3303344
            }
        },
        {
            "Europe/Kaliningrad": {
                "location": "Kaliningrad",
                "latitude": 54.7046485,
                "longitude": 20.4565666
            }
        },
        {
            "Europe/Kiev": {
                "location": "Kiev",
                "latitude": 50.4500336,
                "longitude": 30.5241361
            }
        },
        {
            "Europe/Kirov": {
                "location": "Kirov",
                "latitude": 58.6035661,
                "longitude": 49.6666241
            }
        },
        {
            "Europe/Kyiv": {
                "location": "Kyiv",
                "latitude": 50.4500336,
                "longitude": 30.5241361
            }
        },
        {
            "Europe/Lisbon": {
                "location": "Lisbon",
                "latitude": 38.7077507,
                "longitude": -9.1365919
            }
        },
        {
            "Europe/Ljubljana": {
                "location": "Ljubljana",
                "latitude": 46.0500268,
                "longitude": 14.5069289
            }
        },
        {
            "Europe/London": {
                "location": "London",
                "latitude": 51.5074456,
                "longitude": -0.1277653
            }
        },
        {
            "Europe/Luxembourg": {
                "location": "Luxembourg",
                "latitude": 49.8158683,
                "longitude": 6.1296751
            }
        },
        {
            "Europe/Madrid": {
                "location": "Madrid",
                "latitude": 40.416782,
                "longitude": -3.703507
            }
        },
        {
            "Europe/Malta": {
                "location": "Malta",
                "latitude": 35.9311442,
                "longitude": 14.3951627
            }
        },
        {
            "Europe/Mariehamn": {
                "location": "Mariehamn",
                "latitude": 60.102423,
                "longitude": 19.94126
            }
        },
        {
            "Europe/Minsk": {
                "location": "Minsk",
                "latitude": 53.9024716,
                "longitude": 27.5618225
            }
        },
        {
            "Europe/Monaco": {
                "location": "Monaco",
                "latitude": 43.7323492,
                "longitude": 7.4276832
            }
        },
        {
            "Europe/Moscow": {
                "location": "Moscow",
                "latitude": 55.625578,
                "longitude": 37.6063916
            }
        },
        {
            "Europe/Nicosia": {
                "location": "Nicosia",
                "latitude": 35.1746503,
                "longitude": 33.3638783
            }
        },
        {
            "Europe/Oslo": {
                "location": "Oslo",
                "latitude": 59.9133301,
                "longitude": 10.7389701
            }
        },
        {
            "Europe/Paris": {
                "location": "Paris",
                "latitude": 48.8588897,
                "longitude": 2.320041
            }
        },
        {
            "Europe/Podgorica": {
                "location": "Podgorica",
                "latitude": 42.4415238,
                "longitude": 19.2621081
            }
        },
        {
            "Europe/Prague": {
                "location": "Prague",
                "latitude": 50.0874654,
                "longitude": 14.4212535
            }
        },
        {
            "Europe/Riga": {
                "location": "Riga",
                "latitude": 56.9493977,
                "longitude": 24.1051846
            }
        },
        {
            "Europe/Rome": {
                "location": "Rome",
                "latitude": 41.8933203,
                "longitude": 12.4829321
            }
        },
        {
            "Europe/Samara": {
                "location": "Samara",
                "latitude": 53.1956255,
                "longitude": 50.1014927
            }
        },
        {
            "Europe/San_Marino": {
                "location": "San Marino",
                "latitude": 43.9458623,
                "longitude": 12.458306
            }
        },
        {
            "Europe/Sarajevo": {
                "location": "Sarajevo",
                "latitude": 43.8570713,
                "longitude": 18.4126147
            }
        },
        {
            "Europe/Saratov": {
                "location": "Saratov",
                "latitude": 51.530018,
                "longitude": 46.034683
            }
        },
        {
            "Europe/Simferopol": {
                "location": "Simferopol",
                "latitude": 44.9521459,
                "longitude": 34.1024858
            }
        },
        {
            "Europe/Skopje": {
                "location": "Skopje",
                "latitude": 41.9962164,
                "longitude": 21.4318935
            }
        },
        {
            "Europe/Sofia": {
                "location": "Sofia",
                "latitude": 42.6977028,
                "longitude": 23.3217359
            }
        },
        {
            "Europe/Stockholm": {
                "location": "Stockholm",
                "latitude": 59.3251172,
                "longitude": 18.0710935
            }
        },
        {
            "Europe/Tallinn": {
                "location": "Tallinn",
                "latitude": 59.437242,
                "longitude": 24.7572693
            }
        },
        {
            "Europe/Tirane": {
                "location": "Tirane",
                "latitude": 41.3281482,
                "longitude": 19.8184435
            }
        },
        {
            "Europe/Tiraspol": {
                "location": "Tiraspol",
                "latitude": 46.8566229,
                "longitude": 29.6059359
            }
        },
        {
            "Europe/Ulyanovsk": {
                "location": "Ulyanovsk",
                "latitude": 54.3150278,
                "longitude": 48.403373
            }
        },
        {
            "Europe/Uzhgorod": {
                "location": "Uzhgorod",
                "latitude": 48.6223731,
                "longitude": 22.3022572
            }
        },
        {
            "Europe/Vaduz": {
                "location": "Vaduz",
                "latitude": 47.1392862,
                "longitude": 9.5227962
            }
        },
        {
            "Europe/Vatican": {
                "location": "Vatican",
                "latitude": 41.9034912,
                "longitude": 12.4528349
            }
        },
        {
            "Europe/Vienna": {
                "location": "Vienna",
                "latitude": 48.2083537,
                "longitude": 16.3725042
            }
        },
        {
            "Europe/Vilnius": {
                "location": "Vilnius",
                "latitude": 54.6870458,
                "longitude": 25.2829111
            }
        },
        {
            "Europe/Volgograd": {
                "location": "Volgograd",
                "latitude": 48.7081906,
                "longitude": 44.5153353
            }
        },
        {
            "Europe/Warsaw": {
                "location": "Warsaw",
                "latitude": 52.2319581,
                "longitude": 21.0067249
            }
        },
        {
            "Europe/Zagreb": {
                "location": "Zagreb",
                "latitude": 45.8130967,
                "longitude": 15.9772795
            }
        },
        {
            "Europe/Zaporozhye": {
                "location": "Zaporozhye",
                "latitude": 47.8507859,
                "longitude": 35.1182867
            }
        },
        {
            "Europe/Zurich": {
                "location": "Zurich",
                "latitude": 47.3744489,
                "longitude": 8.5410422
            }
        },
        {
            "Indian/Antananarivo": {
                "location": "Antananarivo",
                "latitude": -18.9100122,
                "longitude": 47.5255809
            }
        },
        {
            "Indian/Chagos": {
                "location": "Chagos",
                "latitude": 42.9845888,
                "longitude": -6.6320816
            }
        },
        {
            "Indian/Christmas": {
                "location": "Christmas",
                "latitude": 28.520462,
                "longitude": -80.9977987
            }
        },
        {
            "Indian/Cocos": {
                "location": "Cocos",
                "latitude": -12.0728315,
                "longitude": 96.8409375
            }
        },
        {
            "Indian/Comoro": {
                "location": "Comoro",
                "latitude": -5.9259567,
                "longitude": 138.6326357
            }
        },
        {
            "Indian/Kerguelen": {
                "location": "Kerguelen",
                "latitude": -49.237442,
                "longitude": 69.622759
            }
        },
        {
            "Indian/Mahe": {
                "location": "Mahe",
                "latitude": 11.7021978,
                "longitude": 75.5364701
            }
        },
        {
            "Indian/Maldives": {
                "location": "Maldives",
                "latitude": 3.7203503,
                "longitude": 73.2244152
            }
        },
        {
            "Indian/Mauritius": {
                "location": "Mauritius",
                "latitude": -20.2759451,
                "longitude": 57.5703566
            }
        },
        {
            "Indian/Mayotte": {
                "location": "Mayotte",
                "latitude": -12.823048,
                "longitude": 45.1520755
            }
        },
        {
            "Indian/Reunion": {
                "location": "Reunion",
                "latitude": -21.1309332,
                "longitude": 55.5265771
            }
        },
        {
            "Mexico/General": {
                "location": "General",
                "latitude": 10.6453219,
                "longitude": 124.4587925
            }
        },
        {
            "Pacific/Apia": {
                "location": "Apia",
                "latitude": -13.8345235,
                "longitude": -171.7630955
            }
        },
        {
            "Pacific/Auckland": {
                "location": "Auckland",
                "latitude": -36.852095,
                "longitude": 174.7631803
            }
        },
        {
            "Pacific/Bougainville": {
                "location": "Bougainville",
                "latitude": 49.8699135,
                "longitude": 2.0432341
            }
        },
        {
            "Pacific/Chatham": {
                "location": "Chatham",
                "latitude": 31.9668887,
                "longitude": -81.0626008
            }
        },
        {
            "Pacific/Chuuk": {
                "location": "Chuuk",
                "latitude": 8.6062347,
                "longitude": 151.8327443
            }
        },
        {
            "Pacific/Easter": {
                "location": "Easter",
                "latitude": -27.114410,
                "longitude": -109.425270
            }
        },
        {
            "Pacific/Efate": {
                "location": "Efate",
                "latitude": -17.6739005,
                "longitude": 168.3648386
            }
        },
        {
            "Pacific/Enderbury": {
                "location": "Enderbury",
                "latitude": -3.1253106,
                "longitude": -171.0860688
            }
        },
        {
            "Pacific/Fakaofo": {
                "location": "Fakaofo",
                "latitude": -9.3735594,
                "longitude": -171.2414826
            }
        },
        {
            "Pacific/Fiji": {
                "location": "Fiji",
                "latitude": -18.1239696,
                "longitude": 179.0122737
            }
        },
        {
            "Pacific/Funafuti": {
                "location": "Funafuti",
                "latitude": -8.5199633,
                "longitude": 179.1982548
            }
        },
        {
            "Pacific/Galapagos": {
                "location": "Galapagos",
                "latitude": 40.6965656,
                "longitude": -3.3379649
            }
        },
        {
            "Pacific/Gambier": {
                "location": "Gambier",
                "latitude": -23.346037,
                "longitude": -134.4805901
            }
        },
        {
            "Pacific/Guadalcanal": {
                "location": "Guadalcanal",
                "latitude": -9.5984209,
                "longitude": 160.1485117
            }
        },
        {
            "Pacific/Guam": {
                "location": "Guam",
                "latitude": 13.4499943,
                "longitude": 144.7651677
            }
        },
        {
            "Pacific/Honolulu": {
                "location": "Honolulu",
                "latitude": 21.304547,
                "longitude": -157.855676
            }
        },
        {
            "Pacific/Johnston": {
                "location": "Johnston",
                "latitude": 16.7524461,
                "longitude": -169.5107016
            }
        },
        {
            "Pacific/Kanton": {
                "location": "Kanton",
                "latitude": -2.8155,
                "longitude": -171.6711445
            }
        },
        {
            "Pacific/Kiritimati": {
                "location": "Kiritimati",
                "latitude": 1.872,
                "longitude": -157.3842085
            }
        },
        {
            "Pacific/Kosrae": {
                "location": "Kosrae",
                "latitude": 5.3142621,
                "longitude": 162.9811154
            }
        },
        {
            "Pacific/Kwajalein": {
                "location": "Kwajalein",
                "latitude": 8.7356547,
                "longitude": 167.7383386
            }
        },
        {
            "Pacific/Majuro": {
                "location": "Majuro",
                "latitude": 7.0909924,
                "longitude": 171.3816354
            }
        },
        {
            "Pacific/Marquesas": {
                "location": "Marquesas",
                "latitude": -9.7793255,
                "longitude": -139.0067835
            }
        },
        {
            "Pacific/Midway": {
                "location": "Midway",
                "latitude": 31.0260203,
                "longitude": -95.7505033
            }
        },
        {
            "Pacific/Nauru": {
                "location": "Nauru",
                "latitude": -0.5252306,
                "longitude": 166.9324426
            }
        },
        {
            "Pacific/Niue": {
                "location": "Niue",
                "latitude": -19.0536414,
                "longitude": -169.861341
            }
        },
        {
            "Pacific/Norfolk": {
                "location": "Norfolk",
                "latitude": 52.666667,
                "longitude": 1.0
            }
        },
        {
            "Pacific/Noumea": {
                "location": "Noumea",
                "latitude": -22.2745264,
                "longitude": 166.442419
            }
        },
        {
            "Pacific/Pago_Pago": {
                "location": "Pago Pago",
                "latitude": -14.2754786,
                "longitude": -170.7048298
            }
        },
        {
            "Pacific/Palau": {
                "location": "Palau",
                "latitude": 5.3783537,
                "longitude": 132.9102573
            }
        },
        {
            "Pacific/Pitcairn": {
                "location": "Pitcairn",
                "latitude": -25.0657719,
                "longitude": -130.101782
            }
        },
        {
            "Pacific/Pohnpei": {
                "location": "Pohnpei",
                "latitude": 6.8870468,
                "longitude": 158.2406138
            }
        },
        {
            "Pacific/Ponape": {
                "location": "Ponape",
                "latitude": 6.8870468,
                "longitude": 158.2406138
            }
        },
        {
            "Pacific/Port_Moresby": {
                "location": "Port Moresby",
                "latitude": -9.4743301,
                "longitude": 147.1599504
            }
        },
        {
            "Pacific/Rarotonga": {
                "location": "Rarotonga",
                "latitude": -21.2368312,
                "longitude": -159.7774744
            }
        },
        {
            "Pacific/Saipan": {
                "location": "Saipan",
                "latitude": 15.1909825,
                "longitude": 145.746743
            }
        },
        {
            "Pacific/Samoa": {
                "location": "Samoa",
                "latitude": -13.7693895,
                "longitude": -172.12005
            }
        },
        {
            "Pacific/Tahiti": {
                "location": "Tahiti",
                "latitude": -17.6873439,
                "longitude": -149.4451681
            }
        },
        {
            "Pacific/Tarawa": {
                "location": "Tarawa",
                "latitude": 1.4845542,
                "longitude": 172.9689648
            }
        },
        {
            "Pacific/Tongatapu": {
                "location": "Tongatapu",
                "latitude": -21.1667068,
                "longitude": -175.1981997
            }
        },
        {
            "Pacific/Truk": {
                "location": "Truk",
                "latitude": 43.3236864,
                "longitude": -1.9853111
            }
        },
        {
            "Pacific/Wake": {
                "location": "Wake",
                "latitude": 19.2960859,
                "longitude": 166.6269779
            }
        },
        {
            "Pacific/Wallis": {
                "location": "Wallis",
                "latitude": 52.2928116,
                "longitude": -3.73893
            }
        },
        {
            "Pacific/Yap": {
                "location": "Yap",
                "latitude": 9.5462683,
                "longitude": 138.1651599
            }
        },
        {
            "US/Alaska": {
                "location": "Alaska",
                "latitude": 64.4459613,
                "longitude": -149.680909
            }
        },
        {
            "US/Aleutian": {
                "location": "Aleutian",
                "latitude": 54.7209351,
                "longitude": -164.0408092
            }
        },
        {
            "US/Arizona": {
                "location": "Arizona",
                "latitude": 34.395342,
                "longitude": -111.763275
            }
        },
        {
            "US/Central": {
                "location": "Central",
                "latitude": 14.6446934,
                "longitude": 121.0504257
            }
        },
        {
            "US/East-Indiana": {
                "location": "East-Indiana",
                "latitude": 34.351313,
                "longitude": -98.2982407
            }
        },
        {
            "US/Eastern": {
                "location": "Eastern",
                "latitude": 7.7596435,
                "longitude": 81.5850205
            }
        },
        {
            "US/Hawaii": {
                "location": "Hawaii",
                "latitude": 19.5938015,
                "longitude": -155.4283701
            }
        },
        {
            "US/Indiana-Starke": {
                "location": "Indiana-Starke",
                "latitude": 41.2753164,
                "longitude": -86.6457565
            }
        },
        {
            "US/Michigan": {
                "location": "Michigan",
                "latitude": 43.6211955,
                "longitude": -84.6824346
            }
        },
        {
            "US/Mountain": {
                "location": "Mountain",
                "latitude": 48.6843951,
                "longitude": -97.8652374
            }
        },
        {
            "US/Pacific": {
                "location": "Pacific",
                "latitude": 46.5334929,
                "longitude": -123.768029
            }
        },
        {
            "US/Samoa": {
                "location": "Samoa",
                "latitude": -13.7693895,
                "longitude": -172.12005
            }
        }
    ]
}